[
  {
    "id": 1,
    "name": "Supermercado El Ahorro",
    "category": "Supermercado",
    "address": "Calle 87 #1-59, Laureles",
    "latitude": 6.25226,
    "longitude": -75.596295,
    "phone": "+57 300 9191770",
    "rating": 3.6,
    "is_open": true,
    "delivery_time": 16
  },
  {
    "id": 2,
    "name": "Restaurante Doña María",
    "category": "Restaurante",
    "address": "Calle 53 #49-51, El Poblado",
    "latitude": 6.211455,
    "longitude": -75.570507,
    "phone": "+57 300 1827914",
    "rating": 3.6,
    "is_open": true,
    "delivery_time": 29
  },
  {
    "id": 3,
    "name": "Farmacia La Salud",
    "category": "Farmacia",
    "address": "Calle 72 #92-3, Bello",
    "latitude": 6.342123,
    "longitude": -75.550049,
    "phone": "+57 300 2480314",
    "rating": 3.6,
    "is_open": false,
    "delivery_time": 44
  },
  {
    "id": 4,
    "name": "Panadería San José",
    "category": "Panadería",
    "address": "Calle 64 #79-24, Laureles",
    "latitude": 6.249785,
    "longitude": -75.603579,
    "phone": "+57 300 3191610",
    "rating": 4.9,
    "is_open": true,
    "delivery_time": 15
  },
  {
    "id": 5,
    "name": "Café del Barrio",
    "category": "Cafetería",
    "address": "Calle 57 #68-4, El Poblado",
    "latitude": 6.201953,
    "longitude": -75.579557,
    "phone": "+57 300 2523996",
    "rating": 3.5,
    "is_open": false,
    "delivery_time": 42
  },
  {
    "id": 6,
    "name": "Tienda Don Juan",
    "category": "Tienda de Abarrotes",
    "address": "Calle 33 #90-36, El Poblado",
    "latitude": 6.205715,
    "longitude": -75.576528,
    "phone": "+57 300 7466452",
    "rating": 4.5,
    "is_open": true,
    "delivery_time": 27
  },
  {
    "id": 7,
    "name": "Supermercado El Éxito Local",
    "category": "Supermercado",
    "address": "Calle 18 #38-51, Bello",
    "latitude": 6.334508,
    "longitude": -75.557121,
    "phone": "+57 300 9340730",
    "rating": 4.3,
    "is_open": false,
    "delivery_time": 35
  },
  {
    "id": 8,
    "name": "Restaurante La Casona",
    "category": "Restaurante",
    "address": "Calle 75 #16-87, Envigado",
    "latitude": 6.173515,
    "longitude": -75.57145,
    "phone": "+57 300 8338267",
    "rating": 4.6,
    "is_open": false,
    "delivery_time": 42
  },
  {
    "id": 9,
    "name": "Farmacia San Rafael",
    "category": "Farmacia",
    "address": "Calle 29 #12-75, Laureles",
    "latitude": 6.24289,
    "longitude": -75.604954,
    "phone": "+57 300 3567143",
    "rating": 3.6,
    "is_open": true,
    "delivery_time": 42
  },
  {
    "id": 10,
    "name": "Panadería La Tradición",
    "category": "Panadería",
    "address": "Calle 61 #40-28, Bello",
    "latitude": 6.343366,
    "longitude": -75.551307,
    "phone": "+57 300 8950013",
    "rating": 3.9,
    "is_open": false,
    "delivery_time": 20
  },
  {
    "id": 11,
    "name": "Pizza Hut Express",
    "category": "Pizzería",
    "address": "Calle 75 #82-36, Bello",
    "latitude": 6.330968,
    "longitude": -75.551517,
    "phone": "+57 300 3992254",
    "rating": 4.9,
    "is_open": false,
    "delivery_time": 27
  },
  {
    "id": 12,
    "name": "Domino's Pizza",
    "category": "Pizzería",
    "address": "Calle 100 #45-99, Laureles",
    "latitude": 6.241064,
    "longitude": -75.601902,
    "phone": "+57 300 9341265",
    "rating": 4.6,
    "is_open": true,
    "delivery_time": 36
  },
  {
    "id": 13,
    "name": "Burger King Express",
    "category": "Comidas Rápidas",
    "address": "Calle 43 #84-77, El Poblado",
    "latitude": 6.205022,
    "longitude": -75.579026,
    "phone": "+57 300 9008226",
    "rating": 4.4,
    "is_open": true,
    "delivery_time": 32
  },
  {
    "id": 14,
    "name": "McDonald's Delivery",
    "category": "Comidas Rápidas",
    "address": "Calle 26 #48-100, Robledo",
    "latitude": 6.272925,
    "longitude": -75.608427,
    "phone": "+57 300 4391134",
    "rating": 3.7,
    "is_open": true,
    "delivery_time": 39
  },
  {
    "id": 15,
    "name": "Subway",
    "category": "Comidas Rápidas",
    "address": "Calle 88 #71-43, Envigado",
    "latitude": 6.178992,
    "longitude": -75.571663,
    "phone": "+57 300 4699695",
    "rating": 4.9,
    "is_open": true,
    "delivery_time": 25
  }
]